{"https://echandler.github.io/a/21.jpg":{"latLng":"50.262550,57.178584","locationUrl":"https://yandex.com/maps/20273/aktobe/?l=stv%2Csta&ll=57.176715%2C50.290275&panorama%5Bdirection%5D=55.325575%2C0.139520&panorama%5Bfull%5D=true&panorama%5Bpoint%5D=57.178584%2C50.262550&panorama%5Bspan%5D=117.248132%2C60.000000&z=16.77"},"https://echandler.github.io/a/5.jpg":{"latLng":"48.9353568,-122.6384161","locationUrl":"https://maps.app.goo.gl/xJc4TYBzj9TGLKvRA"},"https://echandler.github.io/a/22.jpg":{"latLng":"48.3314389,-88.8193409","locationUrl":"https://maps.app.goo.gl/FyqhUPPWEQwhZyEu6"},"https://echandler.github.io/a/23.jpg":{"latLng":"-0.689969,73.156438","locationUrl":"https://maps.app.goo.gl/3fJbQiAuqBq3Nknp7"},"https://echandler.github.io/a/20.jpg":{"latLng":"49.572087,117.339574","locationUrl":"https://map.baidu.com/poi/Dubayy%2C%20United%20Arab%20Emirates/@13562235.546917263,3723498.089226655,11z#panoid=0901300012200920102135070HG&panotype=street&heading=69.38&pitch=2.65&l=11&tn=B_NORMAL_MAP&sc=0&newmap=1&shareurl=1&pid=0901300012200920102135070HG"}}